Country,City,AccentCity,Population,Latitude,Longitude
ae,abu dhabi,Abu Dhabi,603687.0,24.466667,54.36666700000001
ae,dubai,Dubai,1137376.0,25.258172,55.304717
ae,sharjah,Sharjah,543942.0,25.35731,55.40330400000001
af,kabul,Kabul,3043589.0,34.516667,69.18333299999999
af,qandahar,Qandahar,391230.0,31.613323,65.710126
al,tirana,Tirana,374801.0,41.3275,19.8188889
am,yerevan,Yerevan,1093499.0,40.1811111,44.51361110000001
ao,luanda,Luanda,2776125.0,-8.836803999999997,13.233173999999998
ar,corrientes,Corrientes,390481.0,-27.480596,-58.834099
ar,la plata,La Plata,684318.0,-34.921454,-57.954533
ar,mar del plata,Mar del Plata,645771.0,-38.002278,-57.557539
ar,mendoza,Mendoza,973047.0,-32.890845,-68.82717099999999
ar,neuquen,Neuquen,359037.0,-38.951606,-68.059102
ar,posadas,Posadas,313438.0,-27.367077,-55.896078
ar,resistencia,Resistencia,406967.0,-27.46056,-58.983886
ar,rosario,Rosario,1218497.0,-32.946818,-60.63931700000001
ar,salta,Salta,548288.0,-24.785896,-65.411664
ar,santa fe,Santa Fe,456044.0,-31.629484,-60.701036
ar,santiago del estero,Santiago del Estero,407636.0,-27.795112,-64.261489
ar,tucuman,Tucuman,828402.0,-26.824144,-65.2226
at,vienna,Vienna,1569315.0,48.2,16.366667
au,adelaide,Adelaide,1074168.0,-34.928661,138.598633
au,brisbane,Brisbane,1843459.0,-27.47101,153.024292
au,canberra,Canberra,324025.0,-35.27603,149.13435
au,gold coast,Gold Coast,501175.0,-28.000290000000003,153.430878
au,melbourne,Melbourne,3730212.0,-37.813938,144.963425
au,perth,Perth,1446715.0,-31.952240000000003,115.861397
au,sydney,Sydney,4394585.0,-33.861481,151.205475
az,baku,Baku,1116513.0,40.39527800000001,49.882222
ba,sarajevo,Sarajevo,696726.0,43.85,18.3833333
bd,dhaka,Dhaka,6493177.0,23.7230556,90.4086111
bd,khulna,Khulna,1342429.0,22.8,89.55
bd,rajshahi,Rajshahi,700206.0,24.3666667,88.6
bd,tungi,Tungi,337620.0,23.89,90.4058333
be,antwerp,Antwerp,459805.0,51.216667,4.416667
be,brussels,Brussels,1019022.0,50.833333,4.3333330000000005
bf,bobo dioulasso,Bobo Dioulasso,370809.0,11.2,-4.3
bf,ouagadougou,Ouagadougou,1031330.0,12.3702778,-1.5247222
bg,plovdiv,Plovdiv,332088.0,42.15,24.75
bg,sofia,Sofia,1062065.0,42.6833333,23.3166667
bg,varna,Varna,307952.0,43.21666670000001,27.9166667
bi,bujumbura,Bujumbura,330539.0,-3.3761111000000006,29.36
bj,abomey-calavi,Abomey-Calavi,385823.0,6.45,2.35
bj,cotonou,Cotonou,690584.0,6.35,2.4333333
bo,cochabamba,Cochabamba,900440.0,-17.3833333,-66.15
bo,la paz,La Paz,812819.0,-16.5,-68.15
br,ananindeua,Ananindeua,433956.0,-1.366667,-48.383333
br,anapolis,Anápolis,319592.0,-16.333333,-48.966667
br,aracaju,Aracaju,490184.0,-10.916667,-37.066667
br,bauru,Bauru,335031.0,-22.316667,-49.066667
br,belem,Belém,1407737.0,-1.45,-48.483333
br,belford roxo,Belford Roxo,466101.0,-22.761995,-43.404654
br,belo horizonte,Belo Horizonte,2373255.0,-19.916667,-43.93333300000001
br,betim,Betim,384038.0,-19.966667,-44.216667
br,brasilia,Brasília,2207812.0,-15.783333,-47.916667
br,campina grande,Campina Grande,348943.0,-7.216667,-35.883333
br,campinas,Campinas,1031573.0,-22.9,-47.083333
br,campo grande,Campo Grande,729164.0,-20.45,-54.61666700000001
br,campos,Campos,387422.0,-21.75,-41.3
br,canoas,Canoas,328297.0,-29.933333,-51.18333300000001
br,carapicuiba,Carapicuíba,361120.0,-23.516667,-46.833333
br,cariacica,Cariacica,330681.0,-20.266667,-40.416667
br,caxias do sul,Caxias do Sul,381277.0,-29.1689,-51.1785
br,contagem,Contagem,627132.0,-19.916667,-44.1
br,cuiaba,Cuiabá,521961.0,-15.583332999999998,-56.083333
br,curitiba,Curitiba,1718433.0,-25.416667,-49.25
br,diadema,Diadema,390641.0,-23.7,-46.616667
br,duque de caxias,Duque de Caxias,818339.0,-22.790321,-43.325009
br,feira de santana,Feira de Santana,481926.0,-12.25,-38.95
br,florianopolis,Florianópolis,412731.0,-27.583333000000003,-48.566667
br,fortaleza,Fortaleza,2416920.0,-3.316667,-41.416667
br,franca,Franca,305047.0,-20.533333,-47.4
br,goiania,Goiânia,1171209.0,-16.666667,-49.266667
br,guaruja,Guarujá,310430.0,-24.0,-46.266667
br,guarulhos,Guarulhos,1169601.0,-23.45068,-46.526175
br,itaquaquecetuba,Itaquaquecetuba,336686.0,-23.483333,-46.35
br,jaboatao,Jaboatão,702632.0,-8.116667,-35.016667
br,joao pessoa,João Pessoa,650896.0,-7.116667,-34.866667
br,joinville,Joinville,461312.0,-26.3,-48.833333
br,juiz de fora,Juiz de Fora,470201.0,-21.751667,-43.352778
br,jundiai,Jundiaí,321595.0,-23.183333,-46.866667
br,londrina,Londrina,471836.0,-23.3,-51.15
br,macapa,Macapá,338937.0,0.033333,-51.05
br,maceio,Maceió,955010.0,-9.666667,-35.716667
br,manaus,Manaus,1598227.0,-3.1133330000000004,-60.025278
br,maringa,Maringá,311727.0,-23.416667,-51.916667
br,maua,Mauá,386077.0,-23.666667,-46.45
br,moji das cruzes,Moji das Cruzes,325753.0,-23.516667,-46.18333300000001
br,montes claros,Montes Claros,332384.0,-16.716667,-43.866667
br,natal,Natal,763057.0,-5.783333,-35.216667
br,niteroi,Niterói,456461.0,-22.90214,-43.130301
br,nova iguacu,Nova Iguaçu,1002129.0,-22.759188,-43.431887
br,olinda,Olinda,366761.0,-8.016667,-34.85
br,osasco,Osasco,677869.0,-23.566667,-46.783333
br,pelotas,Pelotas,320680.0,-31.766667,-52.333333
br,piracicaba,Piracicaba,342216.0,-22.716667,-47.633333
br,porto alegre,Porto Alegre,1372763.0,-30.033333,-51.2
br,porto velho,Pôrto Velho,306206.0,-8.766667,-63.9
br,recife,Recife,1478118.0,-8.05,-34.9
br,ribeirao das neves,Ribeirão das Neves,406840.0,-19.783333,-44.1
br,ribeirao preto,Ribeirão Prêto,551278.0,-21.166667,-47.8
br,rio de janeiro,Rio de Janeiro,6023742.0,-22.9,-43.233333
br,salvador,Salvador,2711903.0,-12.983333,-38.516667
br,santo andre,Santo André,662387.0,-23.666667,-46.516667
br,santos,Santos,411411.0,-23.95,-46.333333
br,sao bernardo do campo,São Bernardo do Campo,743386.0,-23.7,-46.55
br,sao goncalo,São Gonçalo,939101.0,-22.800278,-43.025556
br,sao joao de meriti,São João de Meriti,454855.0,-22.798614,-43.360894
br,sao jose do rio preto,São José do Rio Prêto,374706.0,-20.8,-49.383333
br,sao jose dos campos,São José dos Campos,613776.0,-23.183333,-45.883333
br,sao luis,São Luís,917252.0,-2.516667,-44.266667
br,sao paulo,São Paulo,10021437.0,-23.473293,-46.665803
br,sao vicente,São Vicente,324464.0,-23.966667,-46.383333
br,serra,Serra,394160.0,-20.116667,-40.3
br,sorocaba,Sorocaba,558874.0,-23.483333,-47.45
br,teresina,Teresina,744526.0,-5.0833330000000005,-42.816667
br,uberlandia,Uberlândia,563545.0,-18.916667,-48.3
br,vila velha,Vila Velha,394937.0,-20.333333,-40.283333
br,vitoria,Vitória,312662.0,-20.316667,-40.35
by,brest,Brest,300716.0,52.1,23.7
by,gomel,Gomel,481000.0,52.4416667,30.9833333
by,hrodna,Hrodna,317366.0,53.6813889,23.8147222
by,minsk,Minsk,1742123.0,53.9,27.566666700000006
ca,calgary,Calgary,968475.0,51.083333,-114.083333
ca,edmonton,Edmonton,822319.0,53.55,-113.5
ca,hamilton,Hamilton,653637.0,43.25,-79.833333
ca,kitchener,Kitchener,409111.0,43.45,-80.5
ca,montreal,Montreal,3268513.0,45.5,-73.583333
ca,ottawa,Ottawa,874433.0,45.416667,-75.7
ca,quebec,Quebec,645623.0,46.8,-71.25
ca,toronto,Toronto,4612187.0,43.666667,-79.416667
ca,vancouver,Vancouver,1837970.0,49.25,-123.133333
ca,winnipeg,Winnipeg,632069.0,49.883333,-97.166667
cd,boma,Boma,344522.0,-5.85,13.05
cd,kananga,Kananga,463556.0,-5.8958330000000005,22.417778
cd,kinshasa,Kinshasa,7787832.0,-4.3,15.3
cd,kisangani,Kisangani,539164.0,0.516667,25.2
cd,likasi,Likasi,422726.0,-10.981389,26.733333
cd,lubumbashi,Lubumbashi,1374808.0,-11.666667,27.466667
cd,mbuji-mayi,Mbuji-Mayi,874974.0,-6.15,23.6
cf,bangui,Bangui,684190.0,4.3666667000000015,18.5833333
cg,brazzaville,Brazzaville,1115773.0,-4.2591667,15.284722199999996
ch,zurich,Zurich,346185.0,47.366667,8.55
ci,abidjan,Abidjan,3692570.0,5.309657,-4.012656
ci,bouake,Bouaké,572149.0,7.6938460000000015,-5.030307
cl,antofagasta,Antofagasta,309835.0,-23.65,-70.4
cm,bamenda,Bamenda,393871.0,5.9333333,10.1666667
cm,douala,Douala,1338144.0,4.0502778,9.7
cm,garoua,Garoua,436932.0,9.3,13.4
cm,kousseri,Kousséri,435986.0,12.0783333,15.0308333
cm,maroua,Maroua,319974.0,10.5955556,14.324722199999998
cm,yaounde,Yaoundé,1299446.0,3.8666667,11.516666699999998
cn,aksu,Aksu,340020.0,41.123056,80.264444
cn,anqing,Anqing,358661.0,30.509167,117.050556
cn,anshan,Anshan,1199275.0,41.123611,122.99
cn,anshun,Anshun,351936.0,26.25,105.933333
cn,anyang,Anyang,781129.0,36.099444,114.328889
cn,baicheng,Baicheng,316970.0,45.616667,122.816667
cn,baoding,Baoding,995652.0,38.851111,115.490278
cn,baoji,Baoji,438295.0,34.365907,107.359045
cn,bengbu,Bengbu,576648.0,32.940833000000005,117.360833
cn,benxi,Benxi,987717.0,41.288611,123.765
cn,cangzhou,Cangzhou,527681.0,38.316667,116.866667
cn,changchun,Changchun,2537421.0,43.88,125.322778
cn,changde,Changde,517780.0,29.046378000000004,111.678304
cn,changzhou,Changzhou,949018.0,31.783333,119.966667
cn,chaoyang,Chaoyang,410005.0,41.570278,120.458611
cn,chaozhou,Chaozhou,424787.0,23.665129,116.637864
cn,chengde,Chengde,449325.0,40.77027800000001,118.169722
cn,chengdu,Chengdu,3950437.0,30.666667,104.066667
cn,chifeng,Chifeng,346654.0,42.268333,118.963611
cn,chongqing,Chongqing,3967028.0,29.562778,106.552778
cn,dalian,Dalian,2035307.0,38.912222,121.602222
cn,dandong,Dandong,631973.0,40.129167,124.394722
cn,datong,Datong,1052678.0,40.093611,113.291389
cn,dezhou,Dezhou,379555.0,37.448611,116.2925
cn,dongying,Dongying,306450.0,37.456389,118.485556
cn,foshan,Foshan,627348.0,23.026771,113.131483
cn,fushun,Fushun,1400646.0,41.7,123.883333
cn,fuxin,Fuxin,689050.0,42.015556,121.658889
cn,fuzhou,Fuzhou,1179720.0,26.061389,119.30611100000002
cn,guangzhou,Guangzhou,3152825.0,23.116667,113.25
cn,guilin,Guilin,649352.0,25.281944,110.286389
cn,guiyang,Guiyang,1171633.0,26.583333000000003,106.716667
cn,haikou,Haikou,615835.0,20.045833,110.341667
cn,handan,Handan,1358318.0,36.566667,114.533333
cn,hangzhou,Hangzhou,1878129.0,30.29365,120.161419
cn,harbin,Harbin,3229883.0,45.75,126.65
cn,hefei,Hefei,1388904.0,31.863889,117.280833
cn,hegang,Hegang,743307.0,47.4,130.366667
cn,hengshui,Hengshui,456356.0,37.732222,115.701111
cn,hengyang,Hengyang,759602.0,26.888056,112.615
cn,hohhot,Hohhot,774477.0,40.810556,111.652222
cn,huaibei,Huaibei,903039.0,33.974444,116.791667
cn,huainan,Huainan,1027655.0,32.626389,116.996944
cn,huaiyin,Huaiyin,555230.0,33.588611,119.019167
cn,jiamusi,Jiamusi,549549.0,46.833333,130.35
cn,jiangmen,Jiangmen,532419.0,22.583333,113.083333
cn,jiaojiang,Jiaojiang,470804.0,28.680278,121.442778
cn,jiaozuo,Jiaozuo,517540.0,35.239722,113.233056
cn,jiaxing,Jiaxing,466101.0,30.752198,120.749997
cn,jilin,Jilin,1881977.0,43.850833,126.560278
cn,jinan,Jinan,2069266.0,36.668333,116.997222
cn,jingdezhen,Jingdezhen,310565.0,29.2947,117.207887
cn,jining,Jining,450327.0,35.405,116.581389
cn,jinxi,Jinxi,313247.0,40.764317,120.85327
cn,jinzhou,Jinzhou,604269.0,41.107778,121.141667
cn,jixi,Jixi,403759.0,45.3,130.966667
cn,kaifeng,Kaifeng,576915.0,34.744167,114.418611
cn,kunming,Kunming,1023674.0,25.038889,102.718333
cn,langfang,Langfang,720119.0,39.509722,116.694722
cn,lanzhou,Lanzhou,1417742.0,36.056389,103.792222
cn,liaoyang,Liaoyang,687890.0,41.226111,123.05611100000002
cn,liuzhou,Liuzhou,763168.0,24.312582,109.389157
cn,luancheng,Luancheng,597130.0,37.879167,114.651667
cn,luohe,Luohe,417356.0,33.571667,114.035278
cn,luoyang,Luoyang,1390581.0,34.683611,112.453611
cn,luqiao,Luqiao,427890.0,28.580835,121.377148
cn,maanshan,Maanshan,540198.0,31.695678000000004,118.498248
cn,maoming,Maoming,473251.0,21.65,110.9
cn,mudanjiang,Mudanjiang,665915.0,44.583333,129.6
cn,nanchang,Nanchang,1871351.0,28.55,115.933333
cn,nanjing,Nanjing,3087010.0,32.061667,118.777778
cn,nanning,Nanning,803788.0,22.816667,108.316667
cn,nantong,Nantong,666251.0,32.030278,120.874722
cn,neijiang,Neijiang,546854.0,29.583536,105.06216
cn,ningbo,Ningbo,719867.0,29.878186,121.549453
cn,panzhihua,Panzhihua,461513.0,26.547902,101.705386
cn,peking,Peking,7480601.0,39.928889,116.388333
cn,pingdingshan,Pingdingshan,889675.0,33.738471999999994,113.301194
cn,pingxiang,Pingxiang,372123.0,27.616667,113.85
cn,puyang,Puyang,666322.0,35.702778,115.005278
cn,qingdao,Qingdao,1642245.0,36.098611,120.371944
cn,qinhuangdao,Qinhuangdao,759718.0,39.931667,119.588333
cn,qiqihar,Qiqihar,882364.0,47.340833,123.967222
cn,qitaihe,Qitaihe,345033.0,45.8,130.85
cn,rongcheng,Rongcheng,1001985.0,23.528858,116.364159
cn,sanmenxia,Sanmenxia,357767.0,34.774722,111.181389
cn,shanghai,Shanghai,14608512.0,31.045556,121.399722
cn,shangrao,Shangrao,318769.0,28.453221000000006,117.968604
cn,shaoguan,Shaoguan,628749.0,24.8,113.583333
cn,shaoxing,Shaoxing,421283.0,30.011019,120.571528
cn,shaoyang,Shaoyang,649452.0,26.965893,111.241376
cn,shashi,Shashi,498780.0,30.307222,112.244722
cn,shenyang,Shenyang,3512192.0,41.792222,123.432778
cn,shenzhen,Shenzhen,1002592.0,22.533333,114.133333
cn,shihezi,Shihezi,572772.0,44.3,86.033333
cn,shiyan,Shiyan,408055.0,32.6475,110.778056
cn,suzhou,Suzhou,1343091.0,31.311389,120.618056
cn,taian,Taian,750340.0,36.185278,117.12
cn,taiyuan,Taiyuan,2722475.0,37.726944,112.470833
cn,taizhou,Taizhou,612356.0,32.493333,119.910627
cn,tanggu,Tanggu,535298.0,39.021111,117.646944
cn,tangshan,Tangshan,2054526.0,37.3325,114.701389
cn,tianjin,Tianjin,3766207.0,39.142222,117.176667
cn,tieling,Tieling,333907.0,42.293056,123.841389
cn,tongling,Tongling,312588.0,30.933333,117.816667
cn,urumqi,Ürümqi,1508225.0,43.80096500000001,87.600459
cn,weifang,Weifang,394732.0,36.71,119.101944
cn,wenzhou,Wenzhou,865672.0,27.999416,120.66682
cn,wuhan,Wuhan,4184206.0,30.580125,114.273405
cn,wuhu,Wuhu,507524.0,31.14607,118.57068999999998
cn,wuxi,Wuxi,1108647.0,31.568873,120.288573
cn,xiamen,Xiamen,578337.0,24.479794,118.081869
cn,xiangfan,Xiangfan,462956.0,32.042203,112.144794
cn,xian,Xian,3953191.0,34.258333,108.928611
cn,xianyang,Xianyang,1034081.0,34.33778,108.70261
cn,xingtai,Xingtai,611739.0,37.063056,114.494167
cn,xining,Xining,767531.0,36.616667,101.766667
cn,xinpu,Xinpu,392444.0,34.599722,119.159444
cn,xinxiang,Xinxiang,743601.0,35.308889,113.867222
cn,xinyang,Xinyang,1590668.0,32.095833,114.120278
cn,xuanhua,Xuanhua,373422.0,40.610278,115.044722
cn,xuchang,Xuchang,449258.0,34.016667,113.816667
cn,xuzhou,Xuzhou,1199193.0,34.180454,117.15707
cn,yancheng,Yancheng,628441.0,33.385556,120.125278
cn,yangjiang,Yangjiang,399735.0,21.85,111.966667
cn,yangzhou,Yangzhou,539715.0,32.397222,119.435833
cn,yanji,Yanji,326957.0,42.771389,129.423333
cn,yantai,Yantai,719332.0,37.533333,121.4
cn,yichang,Yichang,476725.0,30.77135,111.321458
cn,yinchuan,Yinchuan,475101.0,38.468056,106.273056
cn,yingkou,Yingkou,591159.0,40.637318,122.502508
cn,yueyang,Yueyang,528140.0,29.140833,113.111111
cn,zhangdian,Zhangdian,669770.0,36.790556,118.063333
cn,zhangjiakou,Zhangjiakou,692602.0,40.81,114.879444
cn,zhangzhou,Zhangzhou,589831.0,24.513333,117.655556
cn,zhanjiang,Zhanjiang,637790.0,21.281452,110.342713
cn,zhaoqing,Zhaoqing,361969.0,23.051157,112.459722
cn,zhenjiang,Zhenjiang,632552.0,32.209167,119.434167
cn,zhongshan,Zhongshan,342306.0,22.520576,113.382318
cn,zhoukou,Zhoukou,377061.0,33.633333,114.633333
cn,zhuhai,Zhuhai,501199.0,22.276944,113.567778
cn,zhuzhou,Zhuzhou,709358.0,27.691868,113.152137
cn,zigong,Zigong,689961.0,29.341622,104.776887
cn,zunyi,Zunyi,466292.0,27.543056,106.823056
co,armenia,Armenia,315332.0,4.533889,-75.681111
co,barranquilla,Barranquilla,1380437.0,10.963889,-74.796389
co,bello,Bello,392945.0,6.337315,-75.557951
co,bogota,Bogotá,7102602.0,4.649178,-74.062827
co,bucaramanga,Bucaramanga,571827.0,7.125392999999999,-73.119804
co,cali,Cali,2392897.0,3.437222,-76.5225
co,cartagena,Cartagena,952036.0,10.399722,-75.514444
co,cucuta,Cúcuta,721406.0,7.893907,-72.50782099999998
co,ibague,Ibagué,421689.0,4.438889,-75.232222
co,manizales,Manizales,357819.0,5.0688900000000015,-75.517383
co,medellin,Medellín,2000001.0,6.2518400000000005,-75.563591
co,neiva,Neiva,352859.0,2.927299,-75.281885
co,pasto,Pasto,382242.0,1.213611,-77.281111
co,pereira,Pereira,440123.0,4.813333,-75.696111
co,santa marta,Santa Marta,431788.0,11.240791,-74.19904
co,soacha,Soacha,313950.0,4.579368,-74.216819
co,soledad,Soledad,342562.0,10.918433,-74.76459
co,valledupar,Valledupar,308242.0,10.46314,-73.253224
co,villavicencio,Villavicencio,321721.0,4.142002,-73.626645
cu,camaguey,Camagüey,347572.0,21.380833300000006,-77.9169444
cu,holguin,Holguín,319114.0,20.8872222,-76.2630556
cu,santiago de cuba,Santiago de Cuba,555878.0,20.0247222,-75.8219444
cz,brno,Brno,377407.0,49.2,16.633333
cz,ostrava,Ostrava,317136.0,49.811852,18.255282
cz,prague,Prague,1154508.0,50.083333,14.466667
de,berlin,Berlin,3398362.0,52.51666700000001,13.4
de,bielefeld,Bielefeld,327198.0,52.033333,8.533333
de,bochum,Bochum,387061.0,51.483333,7.216667
de,bonn,Bonn,314081.0,50.733333,7.1
de,bremen,Bremen,546429.0,53.083333,8.8
de,cologne,Cologne,968823.0,50.93333300000001,6.95
de,dortmund,Dortmund,594255.0,51.516667,7.45
de,dresden,Dresden,480801.0,51.05,13.75
de,duisburg,Duisburg,505271.0,51.43333300000001,6.75
de,dusseldorf,Düsseldorf,577139.0,51.216667,6.766667
de,essen,Essen,576914.0,51.45,7.016667
de,frankfurt,Frankfurt,648034.0,50.116667,8.683333
de,hamburg,Hamburg,1733846.0,53.55,10.0
de,hanover,Hanover,519144.0,52.366667,9.716667
de,leipzig,Leipzig,492637.0,51.3,12.333333
de,mannheim,Mannheim,309626.0,49.488333,8.464722
de,munich,Munich,1246133.0,48.15,11.5833
de,nuremberg,Nuremberg,497593.0,49.447778,11.068333
de,stuttgart,Stuttgart,591688.0,48.766667,9.183333
de,wuppertal,Wuppertal,363240.0,51.266667,7.183333
dj,jibuti,Jibuti,623891.0,11.595,43.148055600000006
dk,copenhagen,Copenhagen,1089958.0,55.666667,12.583333
do,santiago,Santiago,555911.0,19.45,-70.7
do,santo domingo,Santo Domingo,2202016.0,18.4666667,-69.9
dz,algiers,Algiers,1980242.0,36.7630556,3.0505556
dz,constantine,Constantine,450126.0,36.365,6.614722200000001
dz,wahran,Wahran,646025.0,35.6911111,-0.6416666999999999
ec,guayaquil,Guayaquil,1952029.0,-2.1666667,-79.9
ec,quito,Quito,1399814.0,-0.2166667,-78.5
ee,tallinn,Tallinn,394023.0,59.4338889,24.7280556
eg,alexandria,Alexandria,3811512.0,31.198055600000004,29.9191667
eg,asyut,Asyut,420614.0,27.1827778,31.1827778
eg,cairo,Cairo,7734602.0,30.05,31.25
eg,el faiyum,El Faiyûm,306421.0,29.3077778,30.84
eg,el mahalla el kubra,El Mahalla el Kubra,431088.0,30.976111100000004,31.166944399999995
eg,gizeh,Gizeh,2443490.0,30.008611100000003,31.2122222
eg,luxor,Luxor,422408.0,25.6833333,32.65
eg,port said,Port Said,538377.0,31.2666667,32.3
eg,suez,Suez,488124.0,29.9666667,32.55
eg,tanta,Tanta,404934.0,30.7911111,30.998055600000004
er,asmara,Asmara,563948.0,15.3333333,38.9333333
es,bilbao,Bilbao,349270.0,43.260919,-2.938764
es,cordoba,Córdoba,311186.0,37.89155,-4.772748
es,las palmas,Las Palmas,365418.0,28.099727,-15.413429999999998
es,madrid,Madrid,3102644.0,40.408566,-3.69222
es,malaga,Málaga,557875.0,36.726666,-4.434802
es,murcia,Murcia,410364.0,37.987041,-1.130042
es,palma,Palma,378884.0,39.574337,2.655222
es,sevilla,Sevilla,686647.0,37.382408,-5.976133
es,valladolid,Valladolid,315859.0,41.655181,-4.72372
es,zaragoza,Zaragoza,635509.0,41.64531,-0.884861
et,addis abeba,Addis Abeba,2757807.0,9.024325,38.749226
fi,helsinki,Helsinki,558457.0,60.17555600000001,24.934167
fr,lyon,Lyon,463700.0,45.748457,4.846711
fr,marseille,Marseille,792823.0,43.285413,5.37606
fr,nice,Nice,341621.0,43.713644,7.259519999999998
fr,paris,Paris,2110694.0,48.866667,2.333333
fr,toulouse,Toulouse,411145.0,43.599516,1.433188
ga,libreville,Libreville,578156.0,0.3833333,9.45
gb,belfast,Belfast,585994.0,54.583333,-5.933333
gb,birmingham,Birmingham,984336.0,52.466667,-1.916667
gb,bristol,Bristol,430714.0,51.45,-2.583333
gb,cardiff,Cardiff,302142.0,51.5,-3.2
gb,coventry,Coventry,308314.0,52.416667,-1.55
gb,edinburgh,Edinburgh,435794.0,55.95,-3.2
gb,glasgow,Glasgow,610271.0,55.833333,-4.25
gb,kingston upon hull,Kingston upon Hull,302297.0,53.716667,-0.333333
gb,leeds,Leeds,455124.0,53.8,-1.583333
gb,leicester,Leicester,339240.0,52.664913,-1.034894
gb,liverpool,Liverpool,468946.0,53.416667,-3.0
gb,london,London,7421228.0,51.514125,-0.093689
gb,manchester,Manchester,395516.0,53.5,-2.216667
gb,sheffield,Sheffield,447048.0,53.36666700000001,-1.5
ge,tbilisi,Tbilisi,1049516.0,41.725,44.7908333
gh,accra,Accra,1963460.0,5.55,-0.2166667
gh,kumasi,Kumasi,1468797.0,6.6833333,-1.6166667
gh,tamale,Tamale,360644.0,9.4,-0.8333333
gh,tema,Tema,351556.0,5.6166667000000015,-0.0166667
gn,conakry,Conakry,1871185.0,9.509166699999998,-13.712222199999998
gr,athens,Athens,729139.0,37.9833333,23.7333333
gr,thessaloniki,Thessaloníki,354291.0,40.6402778,22.9438889
gt,guatemala city,Guatemala City,973208.0,14.621111,-90.526944
gt,guatemala,Guatemala,973208.0,14.621111,-90.526944
gt,mixco,Mixco,460576.0,14.633333,-90.606389
gt,villa nueva,Villa Nueva,397158.0,14.526944,-90.5875
gw,bissau,Bissau,388094.0,11.85,-15.5833333
hn,san pedro sula,San Pedro Sula,489506.0,15.5,-88.0333333
hn,tegucigalpa,Tegucigalpa,850961.0,14.1,-87.2166667
hr,zagreb,Zagreb,698967.0,45.8,16.0
ht,carrefour,Carrefour,439590.0,18.5383333,-72.4122222
ht,delmas,Delmas,377194.0,18.5447222,-72.30277779999999
ht,port-au-prince,Port-au-Prince,1234750.0,18.5391667,-72.335
hu,budapest,Budapest,1708088.0,47.5,19.083333
id,ambon,Ambon,355607.0,-3.695426,128.181405
id,balikpapan,Balikpapan,433939.0,-1.283333,116.833333
id,bandung,Bandung,1699822.0,-6.903889,107.61861100000002
id,banjarmasin,Banjarmasin,572910.0,-3.333333,114.583333
id,bekasi,Bekasi,1520204.0,-6.2349,106.9896
id,bengkulu,Bengkulu,309759.0,-3.8,102.266667
id,bogor,Bogor,769328.0,-6.594444,106.789167
id,cimahi,Cimahi,378027.0,-6.698333,107.275278
id,denpasar,Denpasar,405959.0,-8.65,115.216667
id,depok,Depok,1198195.0,-6.343333,106.498889
id,jakarta,Jakarta,8540306.0,-6.174444,106.829444
id,jambi,Jambi,420391.0,-1.6,103.616667
id,makasar,Makasar,1321832.0,-5.14,119.4221
id,malang,Malang,746780.0,-7.9797,112.6304
id,manado,Manado,451910.0,1.487,124.8455
id,mataram,Mataram,318712.0,-8.583333,116.116667
id,medan,Medan,1751190.0,3.583333,98.666667
id,pacet,Pacet,328324.0,-6.750278,107.046667
id,padang,Padang,840458.0,-0.953154,100.367659
id,palembang,Palembang,1241334.0,-2.916667,104.75
id,pontianak,Pontianak,455226.0,-0.033333,109.333333
id,samarinda,Samarinda,355223.0,-0.5,117.15
id,semarang,Semarang,1288221.0,-6.9932,110.4203
id,surabaya,Surabaya,2374920.0,-7.249167,112.750833
id,surakarta,Surakarta,555368.0,-7.556111,110.831667
id,tambun,Tambun,314271.0,-6.105278,107.222222
id,tangerang,Tangerang,1372185.0,-6.178056,106.63
id,yogyakarta,Yogyakarta,636711.0,-7.782777999999999,110.360833
ie,dublin,Dublin,1024027.0,53.3330556,-6.2488889
il,jerusalem,Jerusalem,714685.0,31.78,35.23
il,tel aviv-yafo,Tel Aviv-Yafo,370480.0,32.067778000000004,34.764722
in,agra,Agra,1430194.0,27.183333,78.016667
in,ahmadabad,Ahmadabad,3719933.0,23.033333,72.616667
in,ahmadnagar,Ahmadnagar,367168.0,19.083333,74.733333
in,ajmer,Ajmer,517947.0,26.45,74.633333
in,akola,Akola,428892.0,20.733333,77.0
in,aligarh,Aligarh,753280.0,27.883333,78.083333
in,allahabad,Allahabad,1073544.0,25.45,81.85
in,ambattur,Ambattur,341078.0,13.076667,80.088611
in,amravati,Amravati,603885.0,20.933333,77.75
in,amritsar,Amritsar,1092528.0,31.633056,74.86555600000001
in,asansol,Asansol,504320.0,23.683333,86.983333
in,aurangabad,Aurangabad,1016520.0,19.883333,75.333333
in,bangalore,Bangalore,4931603.0,12.983333,77.583333
in,barddhaman,Barddhaman,301754.0,23.240556,87.869444
in,bareli,Bareli,745509.0,28.35,79.416667
in,belgaum,Belgaum,428756.0,15.866667,74.5
in,bellary,Bellary,336710.0,15.15,76.93333299999998
in,bhagalpur,Bhagalpur,361587.0,25.25,87.0
in,bhatpara,Bhatpara,483175.0,22.871389,88.408889
in,bhavnagar,Bhavnagar,555014.0,21.766667,72.15
in,bhilai,Bhilai,625203.0,21.216667,81.43333299999998
in,bhilwara,Bhilwara,326454.0,25.35,74.633333
in,bhiwandi,Bhiwandi,707090.0,19.3,73.06666700000002
in,bhopal,Bhopal,1600080.0,23.266667,77.4
in,bhubaneswar,Bhubaneswar,762307.0,20.233333,85.833333
in,bikaner,Bikaner,576056.0,28.016667,73.3
in,bokaro,Bokaro,418578.0,23.783333,85.966667
in,bombay,Bombay,12692717.0,18.975,72.82583299999997
in,brahmapur,Brahmapur,324753.0,19.316667,84.783333
in,calcutta,Calcutta,4631819.0,22.569722,88.369722
in,chandigarh,Chandigarh,914374.0,30.7343,76.7933
in,chandrapur,Chandrapur,328377.0,19.95,79.3
in,dehra dun,Dehra Dun,522135.0,30.316667,78.033333
in,delhi,Delhi,10928270.0,28.666667,77.216667
in,dhule,Dhule,367010.0,20.9,74.783333
in,durgapur,Durgapur,518922.0,23.483333,87.31666700000002
in,faridabad,Faridabad,1280909.0,28.433333,77.31666700000002
in,firozabad,Firozabad,306439.0,27.15,78.416667
in,gaya,Gaya,423737.0,24.783333,85.0
in,ghaziabad,Ghaziabad,1199306.0,28.666667,77.43333299999998
in,gorakhpur,Gorakhpur,674312.0,26.755,83.373889
in,gulbarga,Gulbarga,483655.0,17.333333,76.833333
in,guntur,Guntur,530636.0,16.3,80.45
in,guwahati,Guwahati,899132.0,26.183333,91.733333
in,gwalior,Gwalior,882551.0,26.223611,78.179167
in,haora,Haora,1027771.0,22.589167,88.310278
in,hubli,Hubli,840285.0,15.35,75.166667
in,indore,Indore,1837230.0,22.716667,75.833333
in,jabalpur,Jabalpur,1030276.0,23.166667,79.95
in,jaipur,Jaipur,2711937.0,26.916667,75.81666700000002
in,jalandhar,Jalandhar,785234.0,31.325556,75.579167
in,jammu,Jammu,465600.0,32.733333,74.866667
in,jamnagar,Jamnagar,492087.0,22.466667,70.06666700000001
in,jamshedpur,Jamshedpur,616404.0,22.8,86.18333299999998
in,jhansi,Jhansi,412968.0,25.433333,78.583333
in,jodhpur,Jodhpur,921540.0,26.286667,73.03
in,kalyan,Kalyan,1262355.0,19.25,73.15
in,kamarhati,Kamarhati,332997.0,22.671111,88.37472199999998
in,kanpur,Kanpur,2823523.0,26.466667,80.35
in,kochi,Kochi,604751.0,9.966667,76.233333
in,kolhapur,Kolhapur,516184.0,16.7,74.216667
in,kollam,Kollam,394198.0,8.880556,76.591667
in,korba,Korba,419326.0,22.35,82.68333299999998
in,kota,Kota,763141.0,25.183333,75.833333
in,kulti,Kulti,305434.0,23.733333,86.85
in,lakhnau,Lakhnau,2472250.0,26.85,80.916667
in,latur,Latur,348994.0,18.4,76.583333
in,ludhiana,Ludhiana,1545476.0,30.9,75.85
in,madras,Madras,4328416.0,13.083333,80.283333
in,madurai,Madurai,909988.0,9.933333,78.116667
in,maisuru,Maisuru,868385.0,12.307222,76.649722
in,malegaon,Malegaon,435397.0,20.55,74.533333
in,mangaluru,Mangaluru,417423.0,12.863889,74.835278
in,mathura,Mathura,330543.0,27.5,77.68333299999998
in,moradabad,Moradabad,721210.0,28.833333000000003,78.783333
in,muzaffarnagar,Muzaffarnagar,349741.0,29.466667,77.68333299999998
in,muzaffarpur,Muzaffarpur,333235.0,26.116667,85.4
in,nagpur,Nagpur,2228191.0,21.15,79.1
in,nanded,Nanded,485150.0,19.15,77.333333
in,new delhi,New Delhi,10928270.0,28.6,77.2
in,nizamabad,Nizamabad,305472.0,18.666667,78.116667
in,panihati,Panihati,378741.0,22.694167,88.374444
in,patiala,Patiala,329248.0,30.326667,76.400278
in,patna,Patna,1600085.0,25.6,85.116667
in,pimpri,Pimpri,1284702.0,18.616667,73.8
in,pune,Pune,2935968.0,18.533333,73.866667
in,raipur,Raipur,680066.0,21.233333,81.633333
in,rajamahendri,Rajamahendri,304838.0,16.983333,81.783333
in,rajkot,Rajkot,1177434.0,22.3,70.783333
in,rajpur,Rajpur,444549.0,22.4125,88.418056
in,ranchi,Ranchi,945079.0,23.35,85.333333
in,rohtak,Rohtak,317266.0,28.9,76.56666700000002
in,saharanpur,Saharanpur,484921.0,29.966667,77.55
in,selam,Selam,778462.0,11.65,78.166667
in,shahjahanpur,Shahjahanpur,320466.0,27.883333,79.916667
in,shiliguri,Shiliguri,515623.0,26.716111,88.423611
in,shimoga,Shimoga,319577.0,13.922222,75.573611
in,sholapur,Sholapur,997358.0,17.683332999999994,75.916667
in,srinagar,Srinagar,975926.0,34.092222,74.802222
in,surat,Surat,2894675.0,20.966667,72.9
in,thana,Thana,1486453.0,19.2,72.966667
in,thiruvananthapuram,Thiruvananthapuram,784223.0,8.506944,76.956944
in,thrissur,Thrissur,325140.0,10.516667,76.216667
in,tiruchchirappalli,Tiruchchirappalli,775551.0,10.805,78.685556
in,tirunelveli,Tirunelveli,435882.0,8.733333,77.7
in,tiruppur,Tiruppur,397554.0,11.1,77.35
in,tumkur,Tumkur,307384.0,13.342222,77.101667
in,ujjain,Ujjain,457395.0,23.183333,75.766667
in,ulhasnagar,Ulhasnagar,516625.0,19.216667,73.15
in,vadodara,Vadodara,1409565.0,22.3,73.2
in,varanasi,Varanasi,1164520.0,25.333333,83.0
in,vijayawada,Vijayawada,874684.0,16.516667,80.616667
in,visakhapatnam,Visakhapatnam,1063293.0,17.7,83.3
in,warangal,Warangal,557864.0,18.0,79.583333
iq,baghdad,Baghdad,5672516.0,33.3386111,44.39388889999999
iq,irbil,Irbil,932854.0,36.19,44.0088889
iq,kirkuk,Kirkuk,601442.0,35.46805560000001,44.3922222
ir,abadan,Abadan,370220.0,30.3392,48.3043
ir,ahvaz,Ahvaz,854980.0,31.3203,48.6693
ir,arak,Arak,503673.0,34.091741,49.689164
ir,ardabil,Ardabil,410773.0,38.2498,48.2933
ir,esfahan,Esfahan,1547241.0,32.657218,51.677608
ir,eslamshahr,Eslamshahr,318855.0,35.5605,51.2346
ir,hamadan,Hamadan,514134.0,34.799215999999994,48.514556
ir,karaj,Karaj,1448996.0,35.8355,51.0103
ir,kashan,Kashan,301107.0,33.9888,51.4773
ir,kerman,Kerman,577547.0,30.283209000000006,57.07879000000001
ir,kermanshah,Kermanshah,766742.0,34.314167,47.065
ir,khorramabad,Khorramabad,329847.0,33.48777800000001,48.355833
ir,khorramshahr,Khorramshahr,331254.0,30.4397,48.1664
ir,mashhad,Mashhad,2307254.0,36.297,59.6062
ir,orumiyeh,Orumiyeh,602443.0,37.5553,45.0724
ir,qazvin,Qazvin,333652.0,36.2797,50.0049
ir,qom,Qom,1011103.0,34.6401,50.8764
ir,rasht,Rasht,594619.0,37.280769,49.58319
ir,sanandaj,Sanandaj,349200.0,35.3144,46.9923
ir,shiraz,Shiraz,1249972.0,29.6036,52.5388
ir,tabriz,Tabriz,1424701.0,38.08,46.2919
ir,yazd,Yazd,477926.0,31.897222,54.3675
ir,zanjan,Zanjan,357489.0,36.6736,48.4787
it,bari,Bari,303049.0,41.133333,16.85
it,bologna,Bologna,367168.0,44.483333,11.333333
it,catania,Catania,307331.0,37.5,15.1
it,florence,Florence,347194.0,43.766667,11.25
it,genoa,Genoa,585815.0,44.416667,8.95
it,milan,Milan,1156903.0,45.466667,9.2
it,naples,Naples,981284.0,40.833333,14.25
it,palermo,Palermo,669582.0,38.116667,13.366667
it,rome,Rome,2643736.0,41.9,12.483333
it,turin,Turin,846489.0,45.05,7.666666999999999
jm,kingston,Kingston,583999.0,18.0,-76.8
jp,akita,Akita,320071.0,39.716667,140.116667
jp,amagasaki,Amagasaki,442176.0,34.716667,135.416667
jp,asahikawa,Asahikawa,356615.0,43.767778,142.370278
jp,fujisawa,Fujisawa,394630.0,35.341944,139.47
jp,fukuyama,Fukuyama,383302.0,34.483333,133.366667
jp,funabashi,Funabashi,560754.0,35.693056,139.98333300000002
jp,hachioji,Hachioji,579402.0,35.655833,139.32388899999998
jp,hamamatsu,Hamamatsu,605105.0,34.7,137.73333300000002
jp,himeji,Himeji,481496.0,34.816666999999995,134.7
jp,hirakata,Hirakata,406335.0,34.8,135.633333
jp,hiroshima,Hiroshima,1143850.0,34.434844,132.740622
jp,ichikawa,Ichikawa,458249.0,35.719722,139.924722
jp,iwaki,Iwaki,357313.0,37.05,140.883333
jp,kashiwa,Kashiwa,340228.0,35.854444,139.968889
jp,kawagoe,Kawagoe,337937.0,35.908611,139.485278
jp,kawaguchi,Kawaguchi,468574.0,35.805,139.72055600000002
jp,kawasaki,Kawasaki,1306804.0,35.520556,139.717222
jp,kitakyushu,Kitakyushu,997545.0,33.833333,130.833333
jp,kobe,Kobe,1528487.0,34.691303999999995,135.182995
jp,koriyama,Koriyama,340563.0,37.4,140.383333
jp,koshigaya,Koshigaya,317443.0,35.883333,139.783333
jp,kurashiki,Kurashiki,437585.0,34.583333,133.76666699999998
jp,machida,Machida,399971.0,35.540278,139.45083300000002
jp,matsudo,Matsudo,470287.0,35.783333,139.9
jp,nagoya,Nagoya,2191291.0,35.180198,136.906739
jp,niigata,Niigata,505276.0,37.902222,139.02361100000002
jp,nishinomiya,Nishinomiya,468929.0,34.716667,135.333333
jp,okazaki,Okazaki,352364.0,34.916667,137.15
jp,sagamihara,Sagamihara,648811.0,35.553056,139.354444
jp,saitama,Saitama,1077730.0,35.89553400000001,139.67747
jp,sakai,Sakai,782347.0,34.583333,135.466667
jp,suita,Suita,351634.0,34.75,135.533333
jp,takatsuki,Takatsuki,354472.0,34.85,135.616667
jp,tokorozawa,Tokorozawa,339441.0,35.786389,139.467778
jp,tokyo,Tokyo,31480498.0,35.685,139.751389
jp,toyohashi,Toyohashi,378377.0,34.766667,137.383333
jp,toyonaka,Toyonaka,384463.0,34.783333,135.466667
jp,toyota,Toyota,362386.0,35.083333,137.15
jp,yokosuka,Yokosuka,428999.0,35.283611,139.667222
ke,mombasa,Mombasa,799727.0,-4.05,39.6666667
ke,nairobi,Nairobi,2750561.0,-1.2833333,36.8166667
kh,phnum penh,Phnum Pénh,1573523.0,11.55,104.9166667
kr,seoul,Seoul,10323448.0,37.5985,126.9783
kz,almaty,Almaty,1204820.0,43.25,76.95
kz,astana,Astana,345621.0,51.181111,71.427778
kz,oskemen,Öskemen,319082.0,49.978889,82.61027800000002
kz,pavlodar,Pavlodar,329014.0,52.3,76.95
kz,shymkent,Shymkent,414059.0,42.3,69.6
kz,taraz,Taraz,358167.0,42.9,71.366667
lb,bayrut,Bayrut,1252010.0,33.8719444,35.5097222
lb,beirut,Beirut,1252010.0,33.8719444,35.5097222
lk,colombo,Colombo,648119.0,6.9319444,79.84777779999997
lr,monrovia,Monrovia,935427.0,6.3105556,-10.8047222
lt,kaunas,Kaunas,374655.0,54.9,23.9
lt,vilnius,Vilnius,542381.0,54.6833333,25.3166667
lv,riga,Riga,742570.0,56.95,24.1
ly,benghazi,Benghazi,650629.0,32.1166667,20.0666667
ly,misratah,Misratah,386120.0,32.3783333,15.090555599999998
ly,tripoli,Tripoli,1150990.0,32.8925,13.18
ma,agadir,Agadir,656110.0,30.420664,-9.593161
ma,asfi,Asfi,328883.0,32.299392,-9.237181
ma,casablanca,Casablanca,3609698.0,33.592779,-7.619157
ma,fez,Fez,1160239.0,34.037151,-4.999797
ma,kenitra,Kenitra,420534.0,34.261008000000004,-6.580203
ma,marrakesh,Marrakesh,942631.0,31.631485,-8.008281
ma,rabat,Rabat,1894386.0,34.013784,-6.844268
ma,tangier,Tangier,825316.0,35.780576,-5.813646
ma,tetouan,Tétouan,365355.0,35.571091,-5.372424
md,chisinau,Chisinau,713805.0,47.005556,28.8575
mg,antananarivo,Antananarivo,1391506.0,-18.9166667,47.5166667
mk,skopje,Skopje,474887.0,42.0,21.4333333
ml,bamako,Bamako,1297390.0,12.65,-8.0
mm,mandalay,Mandalay,1208227.0,22.0,96.0833333
mm,mawlamyine,Mawlamyine,438907.0,16.4913889,97.6255556
mm,rangoon,Rangoon,4477782.0,16.783333300000002,96.1666667
mn,ulaanbaatar,Ulaanbaatar,844786.0,47.9166667,106.9166667
mr,nouakchott,Nouakchott,709835.0,18.0863889,-15.975277800000002
mw,blantyre,Blantyre,584870.0,-15.7833333,35.0
mw,lilongwe,Lilongwe,646738.0,-13.983333300000002,33.783333299999995
mx,acapulco,Acapulco,652160.0,16.85,-99.916667
mx,aguascalientes,Aguascalientes,658193.0,21.883333,-102.3
mx,apodaca,Apodaca,352246.0,25.766667,-100.2
mx,cancun,Cancún,542156.0,21.166667,-86.833333
mx,celaya,Celaya,305913.0,20.516667,-100.816667
mx,chihuahua,Chihuahua,708292.0,28.633333,-106.083333
mx,chimalhuacan,Chimalhuacán,590165.0,19.416667,-98.9
mx,coacalco,Coacalco,313419.0,19.631667,-99.110278
mx,cuautitlan izcalli,Cuautitlán Izcalli,475199.0,19.646944,-99.246667
mx,cuernavaca,Cuernavaca,343785.0,18.916667,-99.25
mx,culiacan,Culiacán,582489.0,24.799444,-107.389722
mx,durango,Durango,457154.0,24.033333,-104.666667
mx,ecatepec,Ecatepec,1806297.0,19.601111,-99.0525
mx,general escobedo,General Escobedo,308284.0,25.816667,-100.333333
mx,guadalajara,Guadalajara,1640649.0,20.666667,-103.333333
mx,guadalupe,Guadalupe,724949.0,25.683333,-100.25
mx,hermosillo,Hermosillo,595833.0,29.066667,-110.966667
mx,irapuato,Irapuato,339568.0,20.683333,-101.35
mx,ixtapaluca,Ixtapaluca,351015.0,19.316667,-98.883333
mx,juarez,Juarez,1403025.0,31.733333,-106.483333
mx,leon,León,1114662.0,21.116667,-101.666667
mx,lopez mateos,López Mateos,521056.0,19.558333,-99.261389
mx,matamoros,Matamoros,435159.0,25.883333,-97.5
mx,mazatlan,Mazatlán,354730.0,23.216667,-106.416667
mx,merida,Mérida,717196.0,20.966667,-89.616667
mx,mexicali,Mexicali,597124.0,32.651944,-115.468333
mx,mexico,Mexico,8720916.0,19.434167,-99.138611
mx,monterrey,Monterrey,1122912.0,25.666667,-100.316667
mx,morelia,Morelia,592820.0,19.7,-101.116667
mx,naucalpan,Naucalpan,846222.0,19.479444,-99.238333
mx,nezahualcoyotl,Nezahualcóyotl,1232565.0,19.413611,-99.033056
mx,nuevo laredo,Nuevo Laredo,349562.0,27.5,-99.516667
mx,pachuca,Pachuca,319593.0,20.116667,-98.733333
mx,puebla,Puebla,1392137.0,19.05,-98.2
mx,queretaro,Querétaro,611803.0,20.6,-100.383333
mx,reynosa,Reynosa,498670.0,26.083333,-98.283333
mx,saltillo,Saltillo,621270.0,25.416667,-101.0
mx,san luis potosi,San Luis Potosí,677726.0,22.15,-100.983333
mx,san nicolas de los garza,San Nicolás de los Garza,507837.0,25.75,-100.3
mx,tampico,Tampico,309015.0,22.216667,-97.85
mx,tijuana,Tijuana,1376494.0,32.533333,-117.016667
mx,tlalnepantla,Tlalnepantla,715798.0,19.526944,-99.221667
mx,tlaquepaque,Tlaquepaque,493667.0,20.65,-103.316667
mx,toluca,Toluca,505903.0,19.288333,-99.667222
mx,tonala,Tonalá,401616.0,20.616667,-103.233333
mx,torreon,Torreón,524084.0,25.55,-103.433333
mx,tuxtla gutierrez,Tuxtla Gutiérrez,481143.0,16.75,-93.116667
mx,veracruz,Veracruz,568336.0,19.2,-96.133333
mx,villahermosa,Villahermosa,362416.0,17.983333,-92.916667
mx,xalapa,Xalapa,425166.0,19.533333,-96.916667
mx,xico,Xico,365793.0,19.266667,-98.933333
mx,zapopan,Zapopan,987555.0,20.716667,-103.4
my,ipoh,Ipoh,673346.0,4.5841,101.0829
my,johor bahru,Johor Bahru,802525.0,1.4655,103.7578
my,klang,Klang,879887.0,3.0333330000000003,101.45
my,kota kinabalu,Kota Kinabalu,457375.0,5.9749,116.0724
my,kuala lumpur,Kuala Lumpur,1453978.0,3.166667,101.7
my,kuantan,Kuantan,366253.0,3.8077,103.326
my,kuching,Kuching,570579.0,1.55,110.333333
my,petaling jaya,Petaling Jaya,520712.0,3.083333,101.65
my,sandakan,Sandakan,392332.0,5.8402,118.1179
my,seremban,Seremban,372931.0,2.7297,101.9381
my,shah alam,Shah Alam,481670.0,3.083333,101.533333
my,tawau,Tawau,306497.0,4.2498,117.8871
mz,beira,Beira,530706.0,-19.8436111,34.83888889999999
mz,maputo,Maputo,1191613.0,-25.965277800000006,32.5891667
mz,matola,Matola,543907.0,-25.9622222,32.4588889
mz,nampula,Nampula,388526.0,-15.119722199999998,39.2647222
ne,niamey,Niamey,774245.0,13.516666699999998,2.1166667
ng,aba,Aba,897613.0,5.106576,7.366667
ng,abeokuta,Abeokuta,593140.0,7.15,3.35
ng,akure,Akure,420623.0,7.252560000000001,5.193118
ng,bauchi,Bauchi,316173.0,10.313441,9.843273
ng,benin,Bénin,1125126.0,6.335045,5.627492
ng,calabar,Calabar,461832.0,4.9517,8.322000000000001
ng,enugu,Enugu,653436.0,6.4402,7.4943
ng,ibadan,Ibadan,3565810.0,7.387778,3.896389
ng,ife,Ife,372191.0,7.466667,4.566667
ng,ikorodu,Ikorodu,313468.0,6.615483,3.5086730000000004
ng,ilorin,Ilorin,814246.0,8.5,4.55
ng,iseyin,Iseyin,340707.0,7.966667,3.6
ng,jos,Jos,816876.0,9.916667,8.9
ng,kaduna,Kaduna,1582211.0,10.522239,7.438280000000002
ng,kano,Kano,3626204.0,11.994354,8.513807
ng,katsina,Katsina,432179.0,12.989428,7.600627999999999
ng,lagos,Lagos,8789133.0,6.453056,3.395833
ng,maiduguri,Maiduguri,1112511.0,11.846441,13.160274
ng,ogbomosho,Ogbomosho,861303.0,8.133333,4.266667
ng,onitsha,Onitsha,561106.0,6.14543,6.788452
ng,oshogbo,Oshogbo,499444.0,7.766667,4.566667
ng,oyo,Oyo,736113.0,7.85,3.933333
ng,port harcourt,Port Harcourt,1148753.0,4.7774230000000015,7.013404
ng,sokoto,Sokoto,563899.0,13.048025,5.214285
ng,warri,Warri,536068.0,5.516667,5.75
ng,zaria,Zaria,975228.0,11.113236,7.7251759999999985
ni,managua,Managua,1140499.0,12.150833300000002,-86.2683333
nl,amsterdam,Amsterdam,745811.0,52.35,4.916667
nl,rotterdam,Rotterdam,603851.0,51.916667,4.5
nl,the hague,The Hague,476587.0,52.083333,4.3
no,oslo,Oslo,808690.0,59.916667,10.75
np,kathmandu,Kathmandu,790612.0,27.7166667,85.3166667
nz,auckland,Auckland,417910.0,-36.866667,174.76666699999996
nz,christchurch,Christchurch,363925.0,-43.533333,172.633333
pa,panama,Panamá,408188.0,8.9666667,-79.5333333
pa,san miguelito,San Miguelito,321516.0,9.0333333,-79.5
pe,arequipa,Arequipa,844000.0,-16.3988889,-71.535
pe,chiclayo,Chiclayo,582597.0,-6.773611099999999,-79.8416667
pe,chimbote,Chimbote,320119.0,-9.0833333,-78.6
pe,cusco,Cusco,313210.0,-13.518333300000002,-71.9780556
pe,huancayo,Huancayo,380098.0,-12.0666667,-75.2333333
pe,iquitos,Iquitos,439114.0,-3.7480556,-73.24722220000002
pe,lima,Lima,7646786.0,-12.05,-77.05
pe,piura,Piura,326592.0,-5.2,-80.6333333
pe,pucallpa,Pucallpa,311793.0,-8.3825,-74.53805559999998
pe,trujillo,Trujillo,750004.0,-8.1166667,-79.0333333
ph,antipolo,Antipolo,549541.0,14.5886,121.1757
ph,bacolod,Bacolod,453954.0,10.6677,122.9533
ph,bacoor,Bacoor,356987.0,14.459027,120.929034
ph,cagayan de oro,Cagayan de Oro,445212.0,8.481111,124.643056
ph,calamba,Calamba,316633.0,14.2118,121.1655
ph,cebu,Cebu,758597.0,10.311111,123.891667
ph,dadiangas,Dadiangas,432571.0,6.112778,125.171667
ph,dasmarinas,Dasmariñas,441878.0,14.329444,120.936667
ph,davao,Davao,1212285.0,7.0730559999999985,125.612778
ph,iloilo,Iloilo,387748.0,10.696944,122.564444
ph,makati,Makati,510383.0,14.566667,121.033333
ph,manila,Manila,10443877.0,14.6042,120.9822
ph,zamboanga,Zamboanga,460879.0,6.910255,122.071715
pk,bahawalpur,Bahawalpur,552765.0,29.4,71.68333299999998
pk,faisalabad,Faisalabad,2507302.0,31.416667,73.083333
pk,gujranwala,Gujranwala,1384869.0,32.161667,74.188309
pk,gujrat,Gujrat,301595.0,32.572842,74.078969
pk,hyderabad,Hyderabad,1386840.0,25.39242,68.37365600000001
pk,islamabad,Islamabad,756105.0,33.69,73.0551
pk,jhang,Jhang,341311.0,31.306773,72.32814
pk,karachi,Karachi,11627378.0,24.9056,67.0822
pk,lahore,Lahore,6312576.0,31.549722,74.343611
pk,larkana,Larkana,364168.0,27.555082,68.214137
pk,mardan,Mardan,300545.0,34.201946,72.052539
pk,multan,Multan,1437644.0,30.195556,71.475278
pk,peshawar,Peshawar,1219248.0,34.008,71.57848800000002
pk,quetta,Quetta,733970.0,30.199004,67.00970799999999
pk,rawalpindi,Rawalpindi,1743599.0,33.6007,73.0679
pk,sargodha,Sargodha,542761.0,32.083611,72.671111
pk,shekhupura,Shekhupura,361408.0,31.713056,73.97833299999998
pk,sialkot,Sialkot,477537.0,32.510103,74.54313
pk,sukkur,Sukkur,417923.0,27.705164,68.857383
pl,bydgoszcz,Bydgoszcz,366452.0,53.127062,18.019987
pl,cracow,Cracow,755050.0,50.083333,19.916667
pl,gdansk,Gdansk,461865.0,54.36085,18.658291
pl,katowice,Katowice,317316.0,50.258415,19.027545
pl,lublin,Lublin,360044.0,51.25,22.566667
pl,poznan,Poznan,570352.0,52.416667,16.966667
pl,szczecin,Szczecin,413658.0,53.439531,14.593891
pl,warsaw,Warsaw,1651676.0,52.25,21.0
pl,wroclaw,Wroclaw,634893.0,51.1,17.033333
pt,lisbon,Lisbon,517798.0,38.716667,-9.133333
py,asuncion,Asunción,508797.0,-25.266667,-57.666667
qa,doha,Doha,344939.0,25.286667,51.533333
ro,bucharest,Bucharest,1877155.0,44.43333300000001,26.1
ro,cluj-napoca,Cluj-Napoca,316749.0,46.766667,23.6
ro,constanta,Constanta,303401.0,44.18333300000001,28.65
ro,craiova,Craiova,304144.0,44.316667,23.8
ro,iasi,Iasi,318014.0,47.166667,27.6
ro,timisoara,Timisoara,315055.0,45.749444,21.227222
rs,belgrade,Belgrade,1115200.0,44.818611,20.468056
ru,arkhangelsk,Arkhangelsk,344603.0,64.5401,40.5433
ru,astrakhan,Astrakhan,502537.0,46.349683,48.040756
ru,barnaul,Barnaul,599586.0,53.360556,83.763611
ru,belgorod,Belgorod,345293.0,50.610743,36.58015200000001
ru,bryansk,Bryansk,427241.0,53.252089,34.371666
ru,cheboksary,Cheboksary,446786.0,56.132222,47.251944
ru,chelyabinsk,Chelyabinsk,1062931.0,55.15444399999999,61.429722
ru,cherepovets,Cherepovets,311854.0,59.13333299999999,37.9
ru,chita,Chita,308294.0,52.031712,113.500867
ru,irkutsk,Irkutsk,586702.0,52.297778,104.296389
ru,ivanovo,Ivanovo,420843.0,56.99719200000001,40.971392
ru,izhevsk,Izhevsk,631044.0,56.849756000000006,53.204479000000006
ru,kaliningrad,Kaliningrad,434959.0,54.706493,20.510951
ru,kaluga,Kaluga,338982.0,54.529302,36.275415
ru,kazan,Kazan,1104750.0,55.78874,49.122144
ru,kemerovo,Kemerovo,477096.0,55.333333,86.083333
ru,khabarovsk,Khabarovsk,578307.0,48.480833,135.092778
ru,kirov,Kirov,457387.0,58.596654,49.660068
ru,krasnodar,Krasnodar,649860.0,45.0488,38.9725
ru,krasnoyarsk,Krasnoyarsk,907460.0,56.0091,92.8628
ru,kurgan,Kurgan,343132.0,55.45,65.333333
ru,kursk,Kursk,409435.0,51.737329,36.187349
ru,lipetsk,Lipetsk,515659.0,52.603111,39.570762
ru,magnitogorsk,Magnitogorsk,413357.0,53.418611,59.047222
ru,makhachkala,Makhachkala,497967.0,42.976378,47.502356
ru,moscow,Moscow,10381288.0,55.752222,37.615556
ru,murmansk,Murmansk,319266.0,68.979174,33.092514
ru,nizhniy novgorod,Nizhniy Novgorod,1284176.0,56.326944,44.0075
ru,nizhniy tagil,Nizhniy Tagil,381121.0,57.91944399999999,59.965
ru,novokuznetsk,Novokuznetsk,539622.0,53.7557,87.1099
ru,novosibirsk,Novosibirsk,1419016.0,55.0415,82.9346
ru,omsk,Omsk,1129289.0,55.0,73.4
ru,orel,Orël,333310.0,52.965076,36.078495
ru,penza,Penza,512607.0,53.200656,45.004643
ru,perm,Perm,982428.0,58.00928199999999,56.284063
ru,rostov-na-donu,Rostov-na-Donu,1074495.0,47.23135,39.723284
ru,ryazan,Ryazan,520177.0,54.6269,39.6916
ru,saint petersburg,Saint Petersburg,4039751.0,59.89444399999999,30.264167
ru,samara,Samara,1134742.0,53.1835,50.1182
ru,saransk,Saransk,303397.0,54.1838,45.1749
ru,saratov,Saratov,863734.0,51.540556,46.008611
ru,smolensk,Smolensk,320994.0,54.7818,32.0401
ru,sochi,Sochi,327613.0,43.599167,39.725689
ru,stavropol,Stavropol,363069.0,45.0428,41.9734
ru,surgut,Surgut,300371.0,61.25,73.416667
ru,tolyatti,Tolyatti,718495.0,53.5303,49.3461
ru,tomsk,Tomsk,485523.0,56.494167,84.97416700000002
ru,tula,Tula,468830.0,54.202133,37.644294
ru,tver,Tver,400216.0,56.860491,35.876027
ru,tyumen,Tyumen,519124.0,57.152222,65.527222
ru,ufa,Ufa,1033350.0,54.785167,56.045621
ru,ulan-ude,Ulan-Ude,360281.0,51.826053,107.609794
ru,ulyanovsk,Ulyanovsk,640685.0,54.32824100000001,48.38657
ru,vladikavkaz,Vladikavkaz,317372.0,43.036667,44.66777800000001
ru,vladimir,Vladimir,310027.0,56.136547,40.396576
ru,vladivostok,Vladivostok,587029.0,43.128056,131.901111
ru,volgograd,Volgograd,1010331.0,48.71939,44.501835
ru,volzhskiy,Volzhskiy,323298.0,48.785832,44.77973
ru,voronezh,Voronezh,840590.0,51.672035,39.184301
ru,yaroslavl,Yaroslavl,606735.0,57.61977,39.85536
ru,yekaterinburg,Yekaterinburg,1287586.0,56.8519,60.6122
rw,kigali,Kigali,745526.0,-1.9536111,30.060555600000004
sa,buraydah,Buraydah,341981.0,26.325986,43.974966
sa,jiddah,Jiddah,2545728.0,21.516944,39.219167
sa,mecca,Mecca,1199659.0,21.426667,39.826111
sa,riyadh,Riyadh,3469290.0,24.653664000000006,46.71522
sa,tabuk,Tabuk,355469.0,28.399804,36.571505
sd,kassala,Kassala,401514.0,15.455833300000002,36.3988889
sd,khartoum,Khartoum,1974780.0,15.5880556,32.5341667
sd,kusti,Kusti,345102.0,13.1666667,32.6666667
sd,umm durman,Umm Durman,2810328.0,15.6361111,32.4372222
sd,wad madani,Wad Madani,332752.0,14.4,33.533333299999995
se,goteborg,Göteborg,515253.0,57.716667,11.966667
se,stockholm,Stockholm,1253309.0,59.333333,18.05
sg,singapore,Singapore,3547809.0,1.2930556,103.8558333
sk,bratislava,Bratislava,423737.0,48.15,17.1166667
sl,freetown,Freetown,1190761.0,8.49,-13.2341667
sn,dakar,Dakar,2702820.0,14.670833300000002,-17.438055600000002
sn,thies,Thiès,320721.0,14.8,-16.9333333
so,hargeysa,Hargeysa,478283.0,9.5833333,44.0666667
so,mogadishu,Mogadishu,2590180.0,2.0666667000000003,45.3666667
sv,san salvador,San Salvador,526013.0,13.7086111,-89.2030556
sv,soyapango,Soyapango,329704.0,13.734722199999998,-89.15138890000001
sy,aleppo,Aleppo,2139878.0,36.2027778,37.1586111
sy,damascus,Damascus,1576843.0,33.5,36.3
th,bangkok,Bangkok,5104475.0,13.753979,100.501444
th,nonthaburi,Nonthaburi,375826.0,13.862167,100.513417
th,samut prakan,Samut Prakan,388921.0,13.600417000000002,100.596778
tj,dushanbe,Dushanbe,543105.0,38.56,68.7738889
tm,asgabat,Asgabat,797900.0,37.95,58.3833333
tn,tunis,Tunis,692816.0,36.806112,10.171078
tr,adana,Adana,1249680.0,37.001667,35.32888900000001
tr,ankara,Ankara,3519177.0,39.911652,32.840305
tr,antalya,Antalya,758603.0,36.908118,30.695565
tr,batman,Batman,302204.0,37.88737800000001,41.132208
tr,bursa,Bursa,1413485.0,40.191667,29.061111
tr,denizli,Denizli,313402.0,37.774167,29.0875
tr,erzurum,Erzurum,420919.0,39.908611,41.276944
tr,eskisehir,Eskisehir,515155.0,39.776667,30.520556
tr,gaziantep,Gaziantep,1066561.0,37.059444,37.3825
tr,istanbul,Istanbul,9797536.0,41.018611,28.964722
tr,izmir,Izmir,2501895.0,38.412726,27.138376
tr,kahramanmaras,Kahramanmaras,376247.0,37.584705,36.926405
tr,kayseri,Kayseri,593164.0,38.732222,35.485278
tr,konya,Konya,876004.0,37.871354,32.484636
tr,malatya,Malatya,442046.0,38.350183,38.316669
tr,mersin,Mersin,612540.0,36.732778,34.644167
tr,samsun,Samsun,394261.0,41.286667,36.33
tr,urfa,Urfa,449785.0,37.16708,38.793919
tr,van,Van,371911.0,38.492393,43.38311
tw,chungho,Chungho,378389.0,24.9944444,121.4727778
tw,fengshan,Fengshan,334443.0,22.6333333,120.35
tw,hsinchu,Hsinchu,413683.0,24.8047222,120.9713889
tw,kaohsiung,Kaohsiung,1512832.0,22.6333333,120.35
tw,keelung,Keelung,397516.0,25.1313889,121.7375
tw,panchiao,Panchiao,491891.0,25.0391667,121.525
tw,sanchung,Sanchung,360829.0,25.0630556,121.4638889
tw,taichung,Taichung,1083582.0,24.1433333,120.6813889
tw,tainan,Tainan,734314.0,22.9933333,120.2036111
tw,taipei,Taipei,2514794.0,25.0391667,121.525
tw,taoyuan,Taoyüan,375366.0,24.9869444,121.3055556
tw,tucheng,Tucheng,332405.0,24.9833333,121.4333333
tz,arusha,Arusha,341155.0,-3.3666667,36.6833333
tz,dar es salaam,Dar es Salaam,2698651.0,-6.8,39.2833333
tz,mwanza,Mwanza,436811.0,-2.5166667,32.9
tz,zanzibar,Zanzibar,403670.0,-6.1666667,39.1833333
ua,chernihiv,Chernihiv,307683.0,51.505507,31.284875
ua,kherson,Kherson,320476.0,46.655814,32.6178
ua,kiev,Kiev,2514227.0,50.43333300000001,30.516667
ua,kryvyy rih,Kryvyy Rih,652376.0,47.90965900000001,33.380438
ua,lvov,Lvov,830000.0,49.840661,24.030451
ua,makiyivka,Makiyivka,376607.0,48.047816,37.925764
ua,odesa,Odesa,1001553.0,46.463934,30.738551
ua,poltava,Poltava,317845.0,49.593727,34.540733
ua,vinnitsa,Vinnitsa,332400.0,49.232776,28.480968
ua,vinnytsya,Vinnytsya,352113.0,49.232776,28.480968
ua,zaporizhzhya,Zaporizhzhya,796213.0,47.822892,35.190314
ug,kampala,Kampala,1353236.0,0.31555559999999994,32.5655556
us,mesa,Mesa,449878.0,33.4222222,-111.8219444
us,phoenix,Phoenix,1428509.0,33.4483333,-112.0733333
us,tucson,Tucson,518907.0,32.2216667,-110.9258333
us,anaheim,Anaheim,333689.0,33.8352778,-117.9136111
us,fresno,Fresno,465183.0,36.7477778,-119.7713889
us,long beach,Long Beach,482618.0,33.76694439999999,-118.18833329999998
us,los angeles,Los Angeles,3877129.0,34.0522222,-118.2427778
us,oakland,Oakland,394579.0,37.8044444,-122.2697222
us,sacramento,Sacramento,467898.0,38.5816667,-121.4933333
us,san diego,San Diego,1287050.0,32.7152778,-117.1563889
us,san francisco,San Francisco,732072.0,37.775,-122.4183333
us,san jose,San Jose,897460.0,37.3394444,-121.8938889
us,santa ana,Santa Ana,343054.0,33.7455556,-117.8669444
us,colorado springs,Colorado Springs,373072.0,38.8338889,-104.8208333
us,denver,Denver,555981.0,39.7391667,-104.98416670000002
us,washington,Washington,552433.0,38.895,-77.0366667
us,jacksonville,Jacksonville,797557.0,30.3319444,-81.6558333
us,miami,Miami,382894.0,25.7738889,-80.1938889
us,tampa,Tampa,324465.0,27.9472222,-82.45861109999998
us,atlanta,Atlanta,422908.0,33.7488889,-84.3880556
us,honolulu,Honolulu,384241.0,21.3069444,-157.8583333
us,chicago,Chicago,2841952.0,41.85,-87.65
us,indianapolis,Indianapolis,773283.0,39.7683333,-86.1580556
us,wichita,Wichita,355244.0,37.6922222,-97.3372222
us,new orleans,New Orleans,459336.0,29.9544444,-90.075
us,baltimore,Baltimore,610892.0,39.2902778,-76.6125
us,boston,Boston,571281.0,42.3583333,-71.0602778
us,detroit,Detroit,884941.0,42.33138889999999,-83.0458333
us,minneapolis,Minneapolis,367773.0,44.98,-93.2636111
us,kansas city,Kansas City,442028.0,39.0997222,-94.5783333
us,saint louis,Saint Louis,320916.0,38.6272222,-90.1977778
us,omaha,Omaha,413487.0,41.2586111,-95.9375
us,las vegas,Las Vegas,540111.0,36.175,-115.1363889
us,albuquerque,Albuquerque,487378.0,35.084444399999995,-106.6505556
us,new york,New York,8107916.0,40.7141667,-74.0063889
us,charlotte,Charlotte,598351.0,35.226944399999994,-80.8433333
us,raleigh,Raleigh,338759.0,35.77194439999999,-78.63888890000001
us,cincinnati,Cincinnati,306382.0,39.1619444,-84.4569444
us,cleveland,Cleveland,449514.0,41.4994444,-81.69555559999998
us,columbus,Columbus,736836.0,39.9611111,-82.99888890000003
us,toledo,Toledo,306974.0,41.6638889,-83.5552778
us,oklahoma city,Oklahoma City,532950.0,35.4675,-97.5161111
us,tulsa,Tulsa,382005.0,36.1538889,-95.9925
us,portland,Portland,540513.0,45.5236111,-122.675
us,philadelphia,Philadelphia,1453268.0,39.9522222,-75.1641667
us,pittsburgh,Pittsburgh,319494.0,40.4405556,-79.9961111
us,san juan,San Juan,418140.0,18.4683333,-66.1061111
us,memphis,Memphis,641608.0,35.14944439999999,-90.04888890000002
us,nashville,Nashville,530852.0,36.1658333,-86.7844444
us,arlington,Arlington,367535.0,32.735555600000005,-97.1077778
us,austin,Austin,678368.0,30.2669444,-97.7427778
us,dallas,Dallas,1211704.0,32.783333299999995,-96.8
us,el paso,El Paso,597181.0,31.758611100000003,-106.4863889
us,fort worth,Fort Worth,618119.0,32.7252778,-97.3205556
us,houston,Houston,2027712.0,29.763055600000005,-95.3630556
us,san antonio,San Antonio,1256810.0,29.4238889,-98.4933333
us,virginia beach,Virginia Beach,449386.0,36.8527778,-75.9783333
us,seattle,Seattle,569369.0,47.6063889,-122.33083329999998
us,milwaukee,Milwaukee,579180.0,43.0388889,-87.90638890000002
uy,montevideo,Montevideo,1305865.0,-34.85805560000001,-56.1708333
uz,andijon,Andijon,318439.0,40.65416670000001,72.3575
uz,namangan,Namangan,432479.0,40.9952778,71.6725
uz,samarkand,Samarkand,319404.0,39.65416670000001,66.9597222
uz,tashkent,Tashkent,1978078.0,41.3166667,69.25
ve,barcelona,Barcelona,424819.0,10.133333300000002,-64.7
ve,barquisimeto,Barquisimeto,809564.0,10.073888900000002,-69.3227778
ve,caracas,Caracas,1815681.0,10.5,-66.91666670000001
ve,ciudad guayana,Ciudad Guayana,746606.0,8.3533333,-62.6527778
ve,maracaibo,Maracaibo,1948269.0,10.631666699999998,-71.6405556
ve,maracay,Maracay,395412.0,10.2469444,-67.5958333
ve,maturin,Maturín,410967.0,9.75,-63.1766667
ve,petare,Petare,365959.0,10.483333300000002,-66.8166667
ve,turmero,Turmero,344746.0,10.233333300000002,-67.4833333
ve,valencia,Valencia,1385202.0,10.1805556,-68.0038889
vn,bien hoa,Biên Hòa,407224.0,10.95,106.816667
vn,da nang,Da Nang,472255.0,16.067778,108.220833
vn,hai phong,Hai Phong,602718.0,20.856111,106.682222
vn,hanoi,Hanoi,1431377.0,21.033333,105.85
vn,ha noi,Ha Noi,1431377.0,21.033333,105.85
vn,ho chi minh city,Ho Chi Minh City,3467426.0,10.75,106.666667
ye,aden,Aden,550744.0,12.7794444,45.03666670000001
za,benoni,Benoni,605363.0,-26.190851,28.311338
za,bloemfontein,Bloemfontein,463084.0,-29.121065,26.214003
za,boksburg,Boksburg,445182.0,-26.214953,28.254732
za,botshabelo,Botshabelo,309810.0,-29.123036,26.773654
za,brakpan,Brakpan,305702.0,-26.236561,28.369378
za,cape town,Cape Town,3433504.0,-33.925839,18.423218
za,durban,Durban,3120340.0,-29.857896000000004,31.029198
za,east london,East London,421562.0,-33.011051,27.910049
za,johannesburg,Johannesburg,2026466.0,-26.205171,28.049815
za,krugersdorp,Krugersdorp,378833.0,-26.092835,27.790701
za,newcastle,Newcastle,404849.0,-27.757956,29.931803
za,pietermaritzburg,Pietermaritzburg,750864.0,-29.616785,30.39278
za,port elizabeth,Port Elizabeth,967722.0,-33.917988,25.570066
za,pretoria,Pretoria,1619485.0,-25.706944,28.229444
za,soweto,Soweto,1695094.0,-26.267812,27.858492
za,tembisa,Tembisa,511671.0,-25.996363,28.226802000000006
za,vereeniging,Vereeniging,474680.0,-26.673133,27.926147
za,welkom,Welkom,432070.0,-27.986442,26.706612
zm,kitwe,Kitwe,400955.0,-12.8166667,28.2
zm,lusaka,Lusaka,1267458.0,-15.4166667,28.2833333
zm,ndola,Ndola,394559.0,-12.9666667,28.6333333
zw,bulawayo,Bulawayo,897249.0,-20.15,28.5833333
zw,chitungwiza,Chitungwiza,456206.0,-17.993888899999995,31.048055600000005
zw,harare,Harare,2213701.0,-17.8177778,31.0447222
